[
  {
    "Category": "Buildings",
    "Year Collected": 2019,
    "Name": "Childhood Home",
    "Description": "Bloomington, Indiana. Jeffrey Road.",
    "Latitude": 33.93909,
    "Longitude": -83.888823,
    "Pic URL": "https://i.imgur.com/J6qizZV.jpg",
    "Video URL": "https://www.flickr.com/gp/163204915@N03/U8Ts50",
    "Icon Color": "R",
    "Building Age": 1979,
    "Nice Rank": 1
  },
  {
    "Category": "Buildings",
    "Year Collected": 2019,
    "Name": "PiperStreetHouse",
    "Description": "Birth home in Macomb, Illinois",
    "Latitude": 34.028002,
    "Longitude": -83.893769,
    "Pic URL": "https://i.imgur.com/OwlL1wQ.jpg",
    "Video URL": "",
    "Icon Color": "R",
    "Building Age": 1912,
    "Nice Rank": 5
  },
  {
    "Category": "Buildings",
    "Year Collected": 2019,
    "Name": "Mcdonough County Hospital",
    "Description": "The hospital where I was born",
    "Latitude": 33.9873,
    "Longitude": -83.955442,
    "Pic URL": "https://i.imgur.com/0BEfyGu.jpg",
    "Video URL": "",
    "Icon Color": "R",
    "Building Age": 1991,
    "Nice Rank": 4
  },
  {
    "Category": "Buildings",
    "Year Collected": 2019,
    "Name": "Chandler Park",
    "Description": "The place where I met Barack Obama",
    "Latitude": 33.886468,
    "Longitude": -83.909221,
    "Pic URL": "https://i.imgur.com/uaJ0KLU.jpg",
    "Video URL": "",
    "Icon Color": "R",
    "Building Age": 1980,
    "Nice Rank": 2
  },
  {
    "Category": "Buildings",
    "Year Collected": 2019,
    "Name": "YMCA",
    "Description": "Mcdonough County YMCA",
    "Latitude": 33.952119,
    "Longitude": -83.972285,
    "Pic URL": "https://i.imgur.com/OPcB7pA.jpg",
    "Video URL": "",
    "Icon Color": "",
    "Building Age": 1900,
    "Nice Rank": 6
  },
  {
    "Category": "Events",
    "Year Collected": 2019,
    "Name": "Event 1",
    "Description": "Description 1",
    "Latitude": 34.032326,
    "Longitude": -84.033348,
    "Pic URL": "https://i.imgur.com/J6qizZV.jpg",
    "Video URL": "https://www.flickr.com/gp/163204915@N03/U8Ts50",
    "Icon Color": "",
    "Building Age": "",
    "Nice Rank": ""
  },
  {
    "Category": "Events",
    "Year Collected": 2019,
    "Name": "Event 2",
    "Description": "Description 2",
    "Latitude": 33.874937,
    "Longitude": -83.904025,
    "Pic URL": "https://i.imgur.com/OwlL1wQ.jpg",
    "Video URL": "",
    "Icon Color": "",
    "Building Age": "",
    "Nice Rank": ""
  },
  {
    "Category": "Events",
    "Year Collected": 2019,
    "Name": "Event 3",
    "Description": "Description 3",
    "Latitude": 33.892426,
    "Longitude": -84.066033,
    "Pic URL": "https://i.imgur.com/0BEfyGu.jpg",
    "Video URL": "",
    "Icon Color": "",
    "Building Age": "",
    "Nice Rank": ""
  },
  {
    "Category": "Events",
    "Year Collected": 2019,
    "Name": "Event 4",
    "Description": "Description 4",
    "Latitude": 33.941988,
    "Longitude": -83.948541,
    "Pic URL": "https://i.imgur.com/uaJ0KLU.jpg",
    "Video URL": "",
    "Icon Color": "",
    "Building Age": "",
    "Nice Rank": ""
  },
  {
    "Category": "Events",
    "Year Collected": 2019,
    "Name": "Event 5",
    "Description": "Description 5",
    "Latitude": 33.979711,
    "Longitude": -83.909663,
    "Pic URL": "https://i.imgur.com/OPcB7pA.jpg",
    "Video URL": "",
    "Icon Color": "",
    "Building Age": "",
    "Nice Rank": ""
  },
  {
    "Category": "Events",
    "Year Collected": 2019,
    "Name": "Event 6",
    "Description": "Description 6",
    "Latitude": 33.943045,
    "Longitude": -84.059372,
    "Pic URL": "https://i.imgur.com/J6qizZV.jpg",
    "Video URL": "https://www.flickr.com/gp/163204915@N03/U8Ts50",
    "Icon Color": "",
    "Building Age": "",
    "Nice Rank": ""
  },
  {
    "Category": "Events",
    "Year Collected": 2019,
    "Name": "Event 7",
    "Description": "Description 7",
    "Latitude": 33.937885,
    "Longitude": -83.958346,
    "Pic URL": "https://i.imgur.com/OwlL1wQ.jpg",
    "Video URL": "",
    "Icon Color": "",
    "Building Age": "",
    "Nice Rank": ""
  },
  {
    "Category": "Events",
    "Year Collected": 2019,
    "Name": "Event 8",
    "Description": "Description 8",
    "Latitude": 33.989584,
    "Longitude": -83.942558,
    "Pic URL": "https://i.imgur.com/0BEfyGu.jpg",
    "Video URL": "",
    "Icon Color": "",
    "Building Age": "",
    "Nice Rank": ""
  },
  {
    "Category": "Events",
    "Year Collected": 2019,
    "Name": "Event 9",
    "Description": "Description 9",
    "Latitude": 33.993362,
    "Longitude": -83.920685,
    "Pic URL": "https://i.imgur.com/uaJ0KLU.jpg",
    "Video URL": "",
    "Icon Color": "",
    "Building Age": "",
    "Nice Rank": ""
  },
  {
    "Category": "Stores",
    "Year Collected": 2019,
    "Name": "Costco",
    "Description": "Bulk goods",
    "Latitude": 33.948609,
    "Longitude": -84.142846,
    "Pic URL": "https://d2dgtayfmpkokn.cloudfront.net/wp-content/uploads/sites/201/2018/12/28082242/costco-logo.png",
    "Video URL": "https://d2dgtayfmpkokn.cloudfront.net/wp-content/uploads/sites/201/2018/12/28082242/costco-logo.png",
    "Icon Color": "",
    "Building Age": "",
    "Nice Rank": ""
  },
  {
    "Category": "Stores",
    "Year Collected": 2019,
    "Name": "Ollie's Bargain Outlet",
    "Description": "Cheap goods",
    "Latitude": 33.949619,
    "Longitude": -84.13919,
    "Pic URL": "https://fm.cnbc.com/applications/cnbc.com/resources/img/editorial/2017/03/29/104371797-13498116_1617083635287407_2769101195243880962_o.530x298.jpg?v=1490799591",
    "Video URL": "https://fm.cnbc.com/applications/cnbc.com/resources/img/editorial/2017/03/29/104371797-13498116_1617083635287407_2769101195243880962_o.530x298.jpg?v=1490799591",
    "Icon Color": "",
    "Building Age": "",
    "Nice Rank": ""
  },
  {
    "Category": "Parks",
    "Year Collected": 2019,
    "Name": "McDaniel's Farm Park",
    "Description": "Historic Gwinnett park",
    "Latitude": 33.96836,
    "Longitude": -84.127947,
    "Pic URL": "https://lh5.googleusercontent.com/p/AF1QipOAneUMRuNr35LHtIeOZiStTemE4TqBtD9bCs5e=w408-h271-k-no",
    "Video URL": "https://lh5.googleusercontent.com/p/AF1QipOAneUMRuNr35LHtIeOZiStTemE4TqBtD9bCs5e=w408-h271-k-no",
    "Icon Color": "",
    "Building Age": "",
    "Nice Rank": ""
  },
  {
    "Category": "Hospitals",
    "Year Collected": 2019,
    "Name": "Gwinnett Medical Center",
    "Description": "Hospital",
    "Latitude": 33.964588,
    "Longitude": -84.017107,
    "Pic URL": "https://www.gwinnettmedicalcenter.org/media/PhotoGalleries/5/Gwinnett-L-ville-Aerial.png",
    "Video URL": "https://www.gwinnettmedicalcenter.org/media/PhotoGalleries/5/Gwinnett-L-ville-Aerial.png",
    "Icon Color": "",
    "Building Age": "",
    "Nice Rank": ""
  },
  {
    "Category": "Stores",
    "Year Collected": 2019,
    "Name": "Lawrenceville Market",
    "Description": "Shopping center",
    "Latitude": 33.968173,
    "Longitude": -84.018848,
    "Pic URL": "http://www.lunited.org/wp-content/uploads/2019/02/42967006_2121205664628356_7757541462991962112_o-1-768x512.jpg",
    "Video URL": "http://www.lunited.org/wp-content/uploads/2019/02/42967006_2121205664628356_7757541462991962112_o-1-768x512.jpg",
    "Icon Color": "",
    "Building Age": "",
    "Nice Rank": ""
  },
  {
    "Category": "Parks",
    "Year Collected": 2019,
    "Name": "Bryson Park",
    "Description": "Gwinnett Park",
    "Latitude": 33.892703,
    "Longitude": -84.14981,
    "Pic URL": "https://s3-us-west-2.amazonaws.com/exploregwinnett/Gwinnett_Parks_Rec/ParksRec_Bryson-Park.jpg",
    "Video URL": "https://s3-us-west-2.amazonaws.com/exploregwinnett/Gwinnett_Parks_Rec/ParksRec_Bryson-Park.jpg",
    "Icon Color": "",
    "Building Age": "",
    "Nice Rank": ""
  },
  {
    "Category": "Hospitals",
    "Year Collected": 2019,
    "Name": "Eastside Medical Center",
    "Description": "Gwinnett Hospital",
    "Latitude": 33.877921,
    "Longitude": -84.021685,
    "Pic URL": "https://www.jedunn.com/sites/default/files/project_images/HCA-Eastside%20Medical%20Center%20Tower%20Exp_E_H_entrance%201_low%20res_0_0.jpg",
    "Video URL": "https://www.jedunn.com/sites/default/files/project_images/HCA-Eastside%20Medical%20Center%20Tower%20Exp_E_H_entrance%201_low%20res_0_0.jpg",
    "Icon Color": "",
    "Building Age": "",
    "Nice Rank": ""
  }
]
